{
  "data": {
    "spot": [
      {
        "no": "1",
        "name": "新ヤラブ街道",
        "place": "大浜～桃里／港から車で約25分",
        "description": "空港を出て最初に目にする街路樹。大浜から桃里にかけて国道沿いに植えられたヤラブ（テリハボク）。潮にも風にも強い島の木は、日々手入れされ、初夏に白い花を咲かせる。",
        "level": "1",
        "latitude": "24.3709446",
        "longitude": "124.2461872",
        "address": "",
        "place2": "",
        "latitude2": "",
        "longitude2": ""
      },
      {
        "no": "2",
        "name": "マンタ山",
        "placd": "白保／港から車で約25分",
        "description": "その雄姿、マンタが空へ翔ぶがごとく。白保方面から見た姿から馬鞍岳（ウマヌファ岳・ファ岳）とも呼ばれる桴海おもと岳。於茂登岳に次いで八重山で二番目に高い山だ。",
        "level": "3",
        "latitude": "24.3737396",
        "longitude": "124.2462087",
        "address": "",
        "place2": "",
        "latitude2": "",
        "longitude2": ""
      },
      {
        "no": "3",
        "name": "ニライカナイへ続く道",
        "place": "白保／港から車で約25分",
        "description": "牧中から東へ一直線。下りは太平洋、上りは於茂登山系を望む、自然豊かな島を体感する坂道。地元白保ではピーゴロの坂と呼ばれ、トライアスロンのコースとしても知られる。",
        "level": "2",
        "latitude": "24.3721759",
        "longitude": "124.2321754",
        "address": "〒907-0242 沖縄県石垣市白保１０５７−１５２",
        "place2": "",
        "latitude2": "",
        "longitude2": ""
      },
      {
        "no": "4",
        "name": "スゥスフツ（獅子口）",
        "place": "白保／港から車で約25分",
        "description": "昔から地元宮良の人々に地理的目印として親しまれてきた、獅子の口の形をした岩。立地は空港を見守る丘の上、今では安全祈願の一翼を担っているのかもしれない。",
        "level": "3",
        "latitude": "24.373505",
        "longitude": "124.2268512",
        "address": "〒907-0243 沖縄県石垣市宮良１２３４",
        "place2": "",
        "latitude2": "",
        "longitude2": ""
      },
      {
        "no": "5",
        "name": "白保の三本木",
        "place": "白保／港から車で約25分",
        "description": "白保小学校の校庭にならぶアコウ、ガジュマル、デイゴ。成人式や生年祝の際にここで記念写真を撮るという。百年も前から地域に親しまれ、人々の人生の節目にある故郷の木。",
        "level": "1",
        "latitude": "24.3536479",
        "longitude": "124.2392939",
        "address": "〒907-0242 沖縄県石垣市白保７３",
        "place2": "",
        "latitude2": "",
        "longitude2": ""
      },
      {
        "no": "6",
        "name": "宮良浜川原のヤラブ並木",
        "place": "宮良／港から車で約20分",
        "description": "宮良浜川原のヤラブ（テリハボク）並木。300mに渡り100本余り。明治初期の旧道開通の際に宮良の人々が植えたのがはじまりとされる。石垣市の文化財・天然記念物。",
        "level": "1",
        "latitude": "24.3577164",
        "longitude": "124.2147249",
        "address": "",
        "place2": "",
        "latitude2": "",
        "longitude2": ""
      },
      {
        "no": "7",
        "name": "津波大石",
        "place": "大浜／港から車で約20分",
        "description": "有名な大浜の津波大石。長径12.8ｍ、高さ5.9ｍ、推定1,000トンの巨大な珊瑚石灰岩。2000年前の大津波で打ち上げられた津波石として、国の天然記念物に指定されている。",
        "level": "2",
        "latitude": "24.3577164",
        "longitude": "124.2147249",
        "address": "",
        "place2": "",
        "latitude2": "",
        "longitude2": ""
      },
      {
        "no": "8",
        "name": "八島日の出海岸",
        "place": "八島町／港から車で約10分",
        "description": "遊歩道として整備された八島の護岸は、石垣島で最も南に位置する朝日スポット。市街地から近く、海を染める朝日を気軽にたのしめる。海の青さが際立つ午後もおすすめ。",
        "level": "5",
        "latitude": "24.3577164",
        "longitude": "124.2147249",
        "address": "",
        "place2": "",
        "latitude2": "",
        "longitude2": ""
      },
      {
        "no": "9",
        "name": "フクギトンネル",
        "place": "登野城／港から車で約8分",
        "description": "登野城二町内、通りを一本はいった小径に茂る福木並木。旧き良き島の村風景を今にのこすこの界隈。木漏れ日の中にゆっくり流れる時間を、旅の人にもぜひあじわってほしい。",
        "level": "3",
        "latitude": "24.3402908",
        "longitude": "124.1626954",
        "address": "〒907-0004 沖縄県石垣市登野城２０１−２",
        "place2": "",
        "latitude2": "",
        "longitude2": ""
      },
      {
        "no": "10",
        "name": "ライオン岩",
        "place": "登野城／港から車で約8分",
        "description": "登野城二丁内の民家のお庭にある不思議な岩。もともと宮良牧中にあった自然石だそう。家主はライオンだと思っていたが、見方によっては人の顔にも見えるとご近所で話題に。",
        "level": "3",
        "latitude": "24.3403373",
        "longitude": "124.1634116",
        "address": "〒907-0004 沖縄県石垣市登野城２３５",
        "place2": "",
        "latitude2": "",
        "longitude2": ""
      },
      {
        "no": "11",
        "name": "雨やどりの福木",
        "place": "大川／港から車で約8分",
        "description": "幼稚園に通う道、歩道を包むように枝をのばす福木。突然のスコールに雨宿りしたり、夏は涼しい日陰をくれたり。たくさんの子供達の記憶に刻まれてきたであろう光景。",
        "level": "2",
        "latitude": "24.3429106",
        "longitude": "124.1619739",
        "address": "〒907-0022 沖縄県石垣市大川１４１",
        "place2": "",
        "latitude2": "",
        "longitude2": ""
      },
      {
        "no": "12",
        "name": "キジムナーの宿る森",
        "place": "新川／港から車で約１0分",
        "description": "街中で見つけた神秘。保育園の前に悠然と座する大ガジュマル。その威容、木というべきか、森と呼ぶべきか。精霊キジムナーは今もみんなを見守っているに違いない。",
        "level": "3",
        "latitude": "24.349726",
        "longitude": "124.1538629",
        "address": "〒907-0024 沖縄県石垣市新川３５０−６",
        "place2": "",
        "latitude2": "",
        "longitude2": ""
      },
      {
        "no": "13",
        "name": "昔馬車道",
        "place": "名蔵／港から車で約２０分",
        "description": "名蔵大橋から東にひろがるマングローブ域を見渡すと、干潮時にかつての馬車道（旧名蔵大橋跡）があらわれる。架橋前、満潮時に男女がはちあわせた際には、胸まで着物を捲り上げた女が後ろから「振り向くなよー」と前方の男性に言っていたエピソードもある、名蔵アンパルの潮路の面影を眺めることができる。",
        "level": "2",
        "latitude": "24.4025899",
        "longitude": "124.1414738",
        "address": "",
        "place2": "",
        "latitude2": "",
        "longitude2": ""
      },
      {
        "no": "14",
        "name": "石のバス停",
        "place": "ヨーン（川平）／港から車で約30分",
        "description": "ヨーンやフーネで見られる「バスのりば」と記されたコンクリート柱。旧路線の頃につくられた古いバス停。緑の中でそっとたたずむ姿は、なつかしい映画のよう。",
        "level": "2",
        "latitude": "24.4502579",
        "longitude": "124.1349855",
        "address": "",
        "place2": "フーネ（崎枝）／港から車で約25分",
        "latitude2": "24.4203951",
        "longitude2": "124.1335881"
      },
      {
        "no": "15",
        "name": "川平湾絶景テラス",
        "place": "川平／港から車で約30分",
        "description": "ぶざま岳の中腹にある巨石テラス。古道・桴海越路を登ること１時間、目の前にひらける至極の川平湾。左は屋良部半島、右は平久保半島まで、絶景パノラマを満喫できる。※登山道に目印がないため、フィールドツアーなどに参加するのがおすすめです。",
        "level": "5",
        "latitude": "24.432303",
        "longitude": "124.1374531",
        "address": "〒907-0453 沖縄県石垣市川平１２１８−４２９",
        "place2": "",
        "latitude2": "",
        "longitude2": ""
      },
      {
        "no": "16",
        "name": "とぅまた松ぬ道",
        "place": "崎枝／港から車で約30分",
        "description": "まぶしい松の緑。崎枝は民謡「とぅまた松節」発祥の地。いま沿道で見られる琉球松は実は比較的あたらしいものだそうだが、いにしえの風景に思いをはせて散歩してみたい。",
        "level": "2",
        "latitude": "24.4388792",
        "longitude": "124.118962",
        "address": "",
        "place2": "",
        "latitude2": "",
        "longitude2": ""
      },
      {
        "no": "17",
        "name": "親子とぅまた松",
        "place": "崎枝／港から車で約30分",
        "description": "崎枝の開拓記念広場に大小ならんだ琉球松を親子に見立てた。民謡に謡われた旧道の松を背景に寄り添う。親から子へ受け継がれてきた繁盛節の心は、弥勒世を願い未来へ。",
        "level": "2",
        "latitude": "24.4388792",
        "longitude": "124.118962",
        "address": "",
        "place2": "",
        "latitude2": "",
        "longitude2": ""
      },
      {
        "no": "18",
        "name": "バナナロード",
        "place": "崎枝／港から車で約30分",
        "description": "崎枝集落の入口で人々を出迎える島バナナ並木。地域が協力してこども会が植えた苗が、こんなに大きくなった。青い海を背に伸びゆく緑は、当地の新名所になりつつある。",
        "level": "2",
        "latitude": "24.4404395",
        "longitude": "124.1158211",
        "address": "〒907-0452 沖縄県石垣市崎枝２６９",
        "place2": "",
        "latitude2": "",
        "longitude2": ""
      },
      {
        "no": "19",
        "name": "ミーバイ岩",
        "place": "崎枝／港から車で約35分",
        "description": "岩から顔を出したミーバイ（ハタ）？インパクトのあるその顔立ちは一度見たら忘れられないかも。大きさは拳大で探しあてるのは容易ではないが、見つけたときの感慨はひとしお。",
        "level": "5",
        "latitude": "24.4304861",
        "longitude": "124.1115484",
        "address": "",
        "place2": "",
        "latitude2": "",
        "longitude2": ""
      },
      {
        "no": "20",
        "name": "野底キノコ岩",
        "place": "野底／港から車で約40分",
        "description": "野底のニシハマ東端にある茸状岩（キノコ岩）。絶妙なバランスの海食による愛らしいシルエット。干潮時は歩いて行けるのでノッチ（海食窪）を間近で観察することもできる。",
        "level": "4",
        "latitude": "24.499033",
        "longitude": "124.2389774",
        "address": "",
        "place2": "",
        "latitude2": "",
        "longitude2": ""
      },
      {
        "no": "21",
        "name": "ハート岩",
        "place": "伊原間／港から車で約45分",
        "description": "伊原間の東海岸に点在する津波石群の中に、ハート模様の石がある。地元では「巻石」と呼ばれ、昔から子宝のご利益があるとされてきた聖なる石。新婚旅行の際にはぜひ。",
        "level": "3",
        "latitude": "24.5071652",
        "longitude": "124.2832768",
        "address": "",
        "place2": "",
        "latitude2": "",
        "longitude2": ""
      },
      {
        "no": "22",
        "name": "浦崎の楽園海プール",
        "place": "平久保／港から車で約65分＋徒歩25分",
        "description": "平久保半島の先端・浦崎は知られざる景勝地。小島にまもられた楽園の箱庭は、波静かな満潮が最高。平野から炎天下の砂浜を徒歩25分、流した汗が報われる絶景がそこに。",
        "level": "2",
        "latitude": "24.6049719",
        "longitude": "124.3393457",
        "address": "",
        "place2": "",
        "latitude2": "",
        "longitude2": ""
      }
    ]
  }
}
